municipio,data,confirmado,suspeito,lat,lon,morte
Acari,2020-06-24,9,92,-6.433949999999925,-36.63958999999994,0
Açu,2020-06-24,298,298,-5.576209999999946,-36.91482999999994,11
Afonso Bezerra,2020-06-24,32,21,-5.500949999999932,-36.50316999999996,4
Água Nova,2020-06-24,0,0,-6.207479999999976,-38.29326999999995,0
Alexandria,2020-06-24,10,14,-6.408309999999973,-38.01498999999996,1
Almino Afonso,2020-06-24,7,18,-6.1523899999999685,-37.767109999999946,0
Alto do Rodrigues,2020-06-24,115,129,-5.295079999999928,-36.76235999999994,6
Angicos,2020-06-24,23,103,-5.679969999999969,-36.60628999999994,2
Antônio Martins,2020-06-24,2,7,-6.215829999999926,-37.888289999999984,0
Apodi,2020-06-24,659,131,-5.663089999999952,-37.79819999999995,8
Areia Branca,2020-06-24,435,575,-4.955419999999948,-37.13026999999994,35
Arês,2020-06-24,46,98,-6.195519999999932,-35.17175999999995,0
Baía Formosa,2020-06-24,18,14,-6.371239999999943,-35.00527999999996,1
Baraúna,2020-06-24,178,91,-5.079409999999939,-37.616939999999936,8
Barcelona,2020-06-24,11,7,-5.950419999999951,-35.92599999999993,0
Bento Fernandes,2020-06-24,11,7,-5.693659999999966,-35.82129999999995,2
Boa Saúde,2020-06-24,13,12,-6.1568099999999495,-35.60445999999996,0
Bodó,2020-06-24,1,4,-5.987109999999973,-36.413319999999935,0
Bom Jesus,2020-06-24,44,29,-5.985359999999957,-35.584439999999965,2
Brejinho,2020-06-24,43,37,-6.204119999999932,-35.365399999999966,0
Caiçara do Norte,2020-06-24,25,23,-5.0642799999999415,-36.052749999999946,1
Caiçara do Rio do Vento,2020-06-24,38,32,-5.757599999999968,-35.997799999999984,1
Caicó,2020-06-24,255,393,-6.460369999999955,-37.09818999999993,3
Campo Grande,2020-06-24,6,9,-5.862209999999948,-37.31170999999996,0
Campo Redondo,2020-06-24,25,16,-6.243609999999932,-36.18324999999993,0
Canguaretama,2020-06-24,82,118,-6.377809999999952,-35.134329999999984,7
Caraúbas,2020-06-24,122,48,-5.787839999999959,-37.559109999999976,0
Carnaúba dos Dantas,2020-06-24,7,74,-6.557059999999979,-36.59242999999998,2
Carnaubais,2020-06-24,33,58,-5.339999999999974,-36.830499999999965,1
Ceará-Mirim,2020-06-24,342,305,-5.6351999999999425,-35.419599999999946,17
Cerro Corá,2020-06-24,5,29,-6.046449999999938,-36.34772999999996,1
Coronel Ezequiel,2020-06-24,6,10,-6.385489999999948,-36.217049999999965,0
Coronel João Pessoa,2020-06-24,6,10,-6.261759999999981,-38.44419999999997,1
Cruzeta,2020-06-24,15,19,-6.412139999999965,-36.78745999999995,0
Currais Novos,2020-06-24,133,148,-6.2570799999999736,-36.51195999999993,2
Doutor Severiano,2020-06-24,14,7,-6.094689999999957,-38.373689999999954,1
Encanto,2020-06-24,17,24,-6.113109999999947,-38.309959999999926,2
Equador,2020-06-24,7,3,-6.944639999999938,-36.71771999999993,0
Espírito Santo,2020-06-24,27,13,-6.332849999999951,-35.310539999999946,0
Extremoz,2020-06-24,249,251,-5.705919999999932,-35.302739999999964,7
Felipe Guerra,2020-06-24,51,8,-5.598289999999963,-37.696579999999976,1
Fernando Pedroza,2020-06-24,7,25,-5.6970699999999415,-36.53090999999995,0
Florânia,2020-06-24,18,86,-6.122259999999926,-36.810299999999984,0
Francisco Dantas,2020-06-24,1,20,-6.0887899999999595,-38.12426999999997,0
Frutuoso Gomes,2020-06-24,5,8,-6.159069999999929,-37.840929999999965,0
Galinhos,2020-06-24,15,3,-5.092329999999947,-36.274389999999975,0
Goianinha,2020-06-24,156,186,-6.2680299999999525,-35.208459999999945,2
Governador Dix-Sept Rosado,2020-06-24,27,78,-5.455879999999978,-37.51944999999995,0
Grossos,2020-06-24,82,158,-4.982039999999927,-37.15163999999993,2
Guamaré,2020-06-24,153,208,-5.10821999999996,-36.31984999999997,5
Ielmo Marinho,2020-06-24,42,39,-5.8213799999999765,-35.552379999999964,2
Ipanguaçu,2020-06-24,45,66,-5.50834999999995,-36.85965999999996,8
Ipueira,2020-06-24,4,10,-6.816899999999976,-37.19819999999993,0
Itajá,2020-06-24,70,38,-5.631279999999948,-36.86386999999996,1
Itaú,2020-06-24,15,25,-5.844509999999957,-37.99028999999996,0
Jaçanã,2020-06-24,31,39,-6.427419999999927,-36.204079999999976,0
Jandaíra,2020-06-24,27,14,-5.356999999999972,-36.125839999999975,1
Janduís,2020-06-24,4,11,-6.017179999999938,-37.40640999999994,1
Japi,2020-06-24,8,16,-6.46596999999997,-35.94584999999995,0
Jardim de Angicos,2020-06-24,3,5,-5.651549999999928,-35.97138999999993,0
Jardim de Piranhas,2020-06-24,32,115,-6.378819999999963,-37.352089999999976,2
Jardim do Seridó,2020-06-24,30,38,-6.587309999999945,-36.773039999999966,1
João Câmara,2020-06-24,110,48,-5.549329999999942,-35.814689999999985,2
João Dias,2020-06-24,1,3,-6.2780299999999425,-37.79738999999995,0
José da Penha,2020-06-24,0,2,-6.318839999999965,-38.28443999999996,0
Jucurutu,2020-06-24,50,178,-6.0319599999999705,-37.016039999999975,2
Jundiá,2020-06-24,12,8,-6.267009999999972,-35.32767999999993,0
Lagoa d'Anta,2020-06-24,29,40,-6.391369999999938,-35.59790999999996,1
Lagoa de Pedras,2020-06-24,6,30,-6.146349999999927,-35.43341999999996,1
Lagoa de Velhos,2020-06-24,22,8,-6.002339999999948,-35.868019999999945,0
Lagoa Nova,2020-06-24,11,8,-6.0944699999999425,-36.47147999999993,1
Lagoa Salgada,2020-06-24,20,20,-6.122439999999926,-35.481429999999925,0
Lajes,2020-06-24,22,103,-5.701139999999953,-36.24448999999999,1
Lajes Pintadas,2020-06-24,42,12,-6.1499899999999466,-36.11679999999996,1
Lucrécia,2020-06-24,5,7,-6.115279999999927,-37.813639999999964,0
Luís Gomes,2020-06-24,12,13,-6.4132999999999365,-38.38688999999994,1
Macaíba,2020-06-24,396,1013,-5.859749999999963,-35.34979999999996,19
Macau,2020-06-24,111,104,-5.112609999999961,-36.634489999999964,12
Major Sales,2020-06-24,1,9,-6.406819999999925,-38.323009999999954,0
Marcelino Vieira,2020-06-24,6,18,-6.29335999999995,-38.16688999999997,0
Martins,2020-06-24,6,4,-6.090019999999981,-37.913569999999936,0
Maxaranguape,2020-06-24,32,22,-5.518319999999959,-35.259219999999964,1
Messias Targino,2020-06-24,9,7,-6.077989999999943,-37.513039999999926,1
Montanhas,2020-06-24,37,22,-6.484459999999956,-35.285369999999936,3
Monte Alegre,2020-06-24,93,78,-6.072449999999948,-35.33660999999995,1
Monte das Gameleiras,2020-06-24,4,14,-6.440269999999941,-35.78496999999993,0
Mossoró,2020-06-24,2235,1615,-5.1878399999999365,-37.34421999999995,109
Natal,2020-06-24,8351,14642,-5.795439999999927,-35.211509999999976,310
Nísia Floresta,2020-06-24,131,88,-6.051759999999945,-35.22305999999997,2
Nova Cruz,2020-06-24,153,87,-6.475229999999954,-35.42883999999998,11
Olho-d'Água do Borges,2020-06-24,13,0,-5.9557499999999655,-37.703629999999976,0
Ouro Branco,2020-06-24,15,24,-6.703359999999975,-36.945779999999964,0
Paraná,2020-06-24,5,5,-6.484079999999949,-38.31215999999995,0
Paraú,2020-06-24,11,12,-5.777339999999981,-37.10159999999996,0
Parazinho,2020-06-24,15,30,-5.2269099999999735,-35.83941999999996,0
Parelhas,2020-06-24,30,136,-6.69241999999997,-36.658919999999966,0
Parnamirim,2020-06-24,2262,2798,-5.905429999999968,-35.26119999999997,66
Passa e Fica,2020-06-24,16,25,-6.4354699999999525,-35.64358999999996,1
Passagem,2020-06-24,12,7,-6.278699999999957,-35.37551999999994,0
Patu,2020-06-24,8,16,-6.101939999999956,-37.637299999999975,1
Pau dos Ferros,2020-06-24,32,66,-6.111899999999935,-38.20614999999998,1
Pedra Grande,2020-06-24,26,11,-5.150869999999942,-35.87695999999994,0
Pedra Preta,2020-06-24,1,8,-5.581669999999974,-36.104319999999966,0
Pedro Avelino,2020-06-24,8,19,-5.52049999999997,-36.387219999999964,0
Pedro Velho,2020-06-24,18,37,-6.438889999999957,-35.221649999999954,0
Pendências,2020-06-24,119,64,-5.2566399999999485,-36.71898999999996,6
Pilões,2020-06-24,13,10,-6.267339999999932,-38.04239999999993,0
Poço Branco,2020-06-24,80,33,-5.620549999999981,-35.65979999999996,1
Portalegre,2020-06-24,8,3,-6.024699999999938,-37.987439999999935,0
Porto do Mangue,2020-06-24,31,80,-5.067129999999963,-36.780739999999966,2
Pureza,2020-06-24,59,25,-5.4634699999999725,-35.55421999999993,1
Rafael Fernandes,2020-06-24,0,11,-6.193529999999952,-38.22623999999996,0
Rafael Godeiro,2020-06-24,10,21,-6.0769899999999675,-37.716549999999984,0
Riacho da Cruz,2020-06-24,10,3,-5.936379999999929,-37.948689999999935,1
Riacho de Santana,2020-06-24,0,0,-6.263279999999952,-38.313729999999964,0
Riachuelo,2020-06-24,38,113,-5.810169999999971,-35.82335999999998,1
Rio do Fogo,2020-06-24,43,63,-5.274719999999945,-35.38252999999997,1
Rodolfo Fernandes,2020-06-24,7,21,-5.7897199999999325,-38.06057999999996,0
Ruy Barbosa,2020-06-24,19,39,-5.881059999999932,-35.934789999999964,0
Santa Cruz,2020-06-24,130,246,-6.22900999999996,-36.021769999999954,2
Santa Maria,2020-06-24,31,61,-5.839589999999928,-35.68999999999994,1
Santana do Matos,2020-06-24,21,51,-5.958059999999932,-36.66101999999995,0
Santana do Seridó,2020-06-24,7,21,-6.771309999999971,-36.73416999999995,0
Santo Antônio,2020-06-24,91,166,-6.314239999999927,-35.47337999999996,7
São Bento do Norte,2020-06-24,10,37,-5.064439999999934,-36.03975999999994,0
São Bento do Trairí,2020-06-24,10,14,-6.342439999999954,-36.085579999999936,0
São Fernando,2020-06-24,6,7,-6.382319999999938,-37.18699999999996,1
São Francisco do Oeste,2020-06-24,2,2,-6.000169999999969,-38.16778999999997,0
São Gonçalo do Amarante,2020-06-24,1045,793,-5.7931899999999805,-35.32882999999997,36
São João do Sabugi,2020-06-24,8,17,-6.7169099999999275,-37.20399999999995,0
São José de Mipibu,2020-06-24,334,579,-6.0736799999999675,-35.237859999999955,4
São José do Campestre,2020-06-24,40,82,-6.311859999999967,-35.71554999999995,2
São José do Seridó,2020-06-24,6,14,-6.449379999999963,-36.87972999999994,0
São Miguel,2020-06-24,28,60,-6.204529999999977,-38.492969999999964,0
São Miguel do Gostoso,2020-06-24,27,69,-5.124319999999956,-35.63579999999996,2
São Paulo do Potengi,2020-06-24,74,206,-5.8928999999999405,-35.756449999999965,5
São Pedro,2020-06-24,39,24,-5.8962799999999325,-35.635119999999965,3
São Rafael,2020-06-24,36,90,-5.802859999999952,-36.88585999999998,2
São Tomé,2020-06-24,46,54,-5.972529999999948,-36.07672999999994,2
São Vicente,2020-06-24,7,23,-6.219899999999938,-36.681949999999965,0
Senador Elói de Souza,2020-06-24,17,20,-6.036669999999957,-35.69077999999996,0
Senador Georgino Avelino,2020-06-24,13,12,-6.162669999999935,-35.12469999999996,2
Serra Caiada,2020-06-24,33,17,-6.106839999999977,-35.71097999999995,3
Serra de São Bento,2020-06-24,6,9,-6.417519999999968,-35.704249999999945,0
Serra do Mel,2020-06-24,54,69,-5.174689999999941,-37.038029999999935,2
Serra Negra do Norte,2020-06-24,38,23,-6.665899999999965,-37.399599999999964,2
Serrinha,2020-06-24,9,26,-6.277789999999925,-35.49991999999997,0
Serrinha dos Pintos,2020-06-24,2,6,-6.1126599999999485,-37.955829999999935,0
Severiano Melo,2020-06-24,12,31,-5.782089999999927,-37.95746999999994,0
Sítio Novo,2020-06-24,0,27,-6.11039999999997,-35.91463999999996,0
Taboleiro Grande,2020-06-24,6,10,-5.928269999999943,-38.04434999999995,1
Taipu,2020-06-24,23,16,-5.621829999999932,-35.596919999999955,1
Tangará,2020-06-24,25,35,-6.199529999999925,-35.80089999999996,3
Tenente Ananias,2020-06-24,20,26,-6.460449999999981,-38.180609999999945,2
Tenente Laurentino Cruz,2020-06-24,16,25,-6.146409999999946,-36.71765999999997,0
Tibau,2020-06-24,28,32,-4.840939999999931,-37.255699999999926,1
Tibau do Sul,2020-06-24,58,38,-6.188469999999938,-35.090569999999964,0
Timbaúba dos Batistas,2020-06-24,9,9,-6.464379999999949,-37.267169999999965,0
Touros,2020-06-24,271,78,-5.198869999999944,-35.46049999999997,8
Triunfo Potiguar,2020-06-24,2,7,-5.8670799999999295,-37.18545999999998,0
Umarizal,2020-06-24,14,29,-5.990989999999954,-37.81269999999995,1
Upanema,2020-06-24,9,28,-5.6433099999999286,-37.258699999999976,0
Várzea,2020-06-24,18,45,-6.3451799999999725,-35.37230999999996,1
Venha-Ver,2020-06-24,1,1,-6.319999999999938,-38.490929999999935,0
Vera Cruz,2020-06-24,59,21,-6.043829999999957,-35.432109999999966,0
Viçosa,2020-06-24,3,7,-5.992209999999943,-37.94571999999994,0
Vila Flor,2020-06-24,19,0,-6.3152599999999675,-35.07624999999996,0
Importados,2020-06-24,70,5,,,7
